{
  "locations": [
    {
      "id": "att-store-sf-downtown",
      "name": "AT&T Store - Downtown SF",
      "type": "retail",
      "coords": [-122.4098, 37.7887],
      "description": "Full-service AT&T retail store with latest devices",
      "city": "Downtown",
      "address": "1 Powell St, San Francisco, CA 94102",
      "rating": 4.7,
      "hours": "Mon-Sat 10am-8pm, Sun 11am-6pm",
      "products": ["Cell phones", "Wireless plans", "Accessories", "Internet"],
      "services": ["Device setup", "Plan consultation", "Trade-in", "Technical support"],
      "thumbnail": "https://images.unsplash.com/photo-1556656793-08538906a9f8?w=400&h=300&fit=crop"
    },
    {
      "id": "att-store-union-square",
      "name": "AT&T Store - Union Square",
      "type": "retail",
      "coords": [-122.4074, 37.7879],
      "description": "Premium AT&T location featuring flagship devices",
      "city": "Union Square",
      "address": "1 Stockton St, San Francisco, CA 94108",
      "rating": 4.6,
      "hours": "Mon-Sat 10am-9pm, Sun 11am-7pm",
      "products": ["iPhone 17 Pro", "Samsung Galaxy S25", "5G plans", "Fiber internet"],
      "services": ["Device demos", "Business solutions", "Same-day activation"],
      "thumbnail": "https://images.unsplash.com/photo-1601524909162-ae8725290836?w=400&h=300&fit=crop"
    },
    {
      "id": "att-fiber-service-mission",
      "name": "AT&T Fiber - Mission District",
      "type": "service-center",
      "coords": [-122.4194, 37.7599],
      "description": "AT&T Fiber internet service available",
      "city": "Mission",
      "address": "2300 Mission St, San Francisco, CA 94110",
      "rating": 4.5,
      "hours": "Mon-Fri 9am-6pm, Sat 10am-5pm",
      "products": ["Fiber internet", "Internet Air", "Home phone"],
      "services": ["Installation", "Equipment setup", "Speed testing"],
      "thumbnail": "https://images.unsplash.com/photo-1544197150-b99a580bb7a8?w=400&h=300&fit=crop"
    },
    {
      "id": "att-store-fishermans-wharf",
      "name": "AT&T Store - Fisherman's Wharf",
      "type": "retail",
      "coords": [-122.4177, 37.8080],
      "description": "Convenient location for tourists and locals",
      "city": "Fisherman's Wharf",
      "address": "2655 Hyde St, San Francisco, CA 94109",
      "rating": 4.4,
      "hours": "Mon-Sun 10am-7pm",
      "products": ["Prepaid plans", "Travel accessories", "Tablets", "Smartwatches"],
      "services": ["International plans", "SIM cards", "Quick setup"],
      "thumbnail": "https://images.unsplash.com/photo-1580587771525-78b9dba3b914?w=400&h=300&fit=crop"
    },
    {
      "id": "att-5g-coverage-soma",
      "name": "5G Ultra Coverage - SoMa",
      "type": "5g-coverage",
      "coords": [-122.3991, 37.7858],
      "description": "Premium 5G+ network coverage area",
      "city": "SoMa",
      "address": "Market St & 4th St, San Francisco, CA 94103",
      "rating": 4.8,
      "hours": "24/7 Coverage",
      "products": ["5G+ plans", "Unlimited Premium", "Business unlimited"],
      "services": ["5G network access", "Ultra-fast speeds", "Low latency"],
      "thumbnail": "https://images.unsplash.com/photo-1558618666-fcd25c85cd64?w=400&h=300&fit=crop"
    },
    {
      "id": "att-store-nob-hill",
      "name": "AT&T Store - Nob Hill",
      "type": "retail",
      "coords": [-122.4123, 37.7919],
      "description": "Neighborhood store with personalized service",
      "city": "Nob Hill",
      "address": "1201 California St, San Francisco, CA 94109",
      "rating": 4.6,
      "hours": "Mon-Sat 10am-7pm, Sun 11am-6pm",
      "products": ["Google Pixel 9", "Motorola Edge", "Wireless accessories"],
      "services": ["Device repair", "Account management", "Bill payment"],
      "thumbnail": "https://images.unsplash.com/photo-1563013544-824ae1b704d3?w=400&h=300&fit=crop"
    },
    {
      "id": "att-business-center-fidi",
      "name": "AT&T Business Center - Financial District",
      "type": "service-center",
      "coords": [-122.4015, 37.7946],
      "description": "Enterprise and business solutions specialist",
      "city": "Financial District",
      "address": "555 California St, San Francisco, CA 94104",
      "rating": 4.7,
      "hours": "Mon-Fri 8am-6pm",
      "products": ["Business plans", "Fleet management", "IoT solutions"],
      "services": ["Enterprise consulting", "Bulk orders", "Custom solutions"],
      "thumbnail": "https://images.unsplash.com/photo-1486406146926-c627a92ad1ab?w=400&h=300&fit=crop"
    },
    {
      "id": "att-store-haight-ashbury",
      "name": "AT&T Store - Haight-Ashbury",
      "type": "retail",
      "coords": [-122.4477, 37.7699],
      "description": "Local store serving the Haight community",
      "city": "Haight-Ashbury",
      "address": "1700 Haight St, San Francisco, CA 94117",
      "rating": 4.5,
      "hours": "Mon-Sat 10am-7pm, Sun 11am-6pm",
      "products": ["Budget phones", "Prepaid plans", "Phone cases"],
      "services": ["Phone unlocking", "Plan upgrades", "Device trade-in"],
      "thumbnail": "https://images.unsplash.com/photo-1519389950473-47ba0277781c?w=400&h=300&fit=crop"
    },
    {
      "id": "att-fiber-service-richmond",
      "name": "AT&T Fiber - Richmond District",
      "type": "service-center",
      "coords": [-122.4647, 37.7799],
      "description": "High-speed fiber internet installation center",
      "city": "Richmond",
      "address": "5200 Geary Blvd, San Francisco, CA 94118",
      "rating": 4.6,
      "hours": "Mon-Fri 9am-6pm, Sat 10am-4pm",
      "products": ["Fiber 1 Gig", "Fiber 2 Gig", "Fiber 5 Gig"],
      "services": ["Professional installation", "WiFi optimization", "Equipment rental"],
      "thumbnail": "https://images.unsplash.com/photo-1451187580459-43490279c0fa?w=400&h=300&fit=crop"
    },
    {
      "id": "att-store-castro",
      "name": "AT&T Store - Castro",
      "type": "retail",
      "coords": [-122.4350, 37.7609],
      "description": "Community-focused store with expert staff",
      "city": "Castro",
      "address": "2300 Market St, San Francisco, CA 94114",
      "rating": 4.8,
      "hours": "Mon-Sat 10am-8pm, Sun 11am-6pm",
      "products": ["Latest iPhones", "Samsung devices", "Unlimited plans"],
      "services": ["LGBTQ+ friendly", "Multilingual support", "Senior assistance"],
      "thumbnail": "https://images.unsplash.com/photo-1556656793-08538906a9f8?w=400&h=300&fit=crop"
    }
  ]
}
